$GPRMC,204902.21,A,4960.00000,N,00800.05540,E,80,90,111223,,,*15
$PGRMZ,3280,F,2*03
$GPGGA,204902.21,4960.00000,N,00800.05540,E,1,07,1.0,1000,M,,,,*1F
$GPGSA,A,3,,,,,,,,,,,,,1.0,1.0,1.0*33
$PFLAA,0,6614,4221,0,2,AA5501,180,,41,0.0,8,*43
$PFLAA,0,6616,5651,0,2,AA5502,180,,41,0.0,8,*40
$PFLAA,0,6617,7080,0,2,AA5503,180,,41,0.0,8,*48
$PFLAA,0,6619,8509,0,2,AA5504,180,,41,0.0,8,*4A
$PFLAA,0,6622,9939,0,2,AA5505,180,,41,0.0,8,*4D
$PFLAA,0,9698,,0,2,AA5506,,,,0.0,8,*76
$PFLAU,6,1,2,1,0,,0,,,*4A
$GPRMC,204903.22,A,4960.00000,N,00800.09006,E,80,90,111223,,,*1C
$PGRMZ,3280,F,2*03
$GPGGA,204903.22,4960.00000,N,00800.09006,E,1,07,1.0,1000,M,,,,*16
$GPGSA,A,3,,,,,,,,,,,,,1.0,1.0,1.0*33
$PFLAA,0,6573,4180,0,2,AA5501,180,,41,0.0,8,*49
$PFLAA,0,6574,5610,0,2,AA5502,180,,41,0.0,8,*42
$PFLAA,0,6576,7039,0,2,AA5503,180,,41,0.0,8,*4E
$PFLAA,0,6578,8468,0,2,AA5504,180,,41,0.0,8,*48
$PFLAA,0,6580,9898,0,2,AA5505,180,,41,0.0,8,*4C
$PFLAA,0,9639,,0,2,AA5506,,,,0.0,8,*7D
$PFLAU,6,1,2,1,0,,0,,,*4A
$GPRMC,204904.22,A,4960.00000,N,00800.12471,E,80,90,111223,,,*15
$PGRMZ,3280,F,2*03
$GPGGA,204904.22,4960.00000,N,00800.12471,E,1,07,1.0,1000,M,,,,*1F
$GPGSA,A,3,,,,,,,,,,,,,1.0,1.0,1.0*33
$PFLAA,0,6532,4139,0,2,AA5501,180,,41,0.0,8,*4E
$PFLAA,0,6533,5568,0,2,AA5502,180,,41,0.0,8,*4D
$PFLAA,0,6535,6998,0,2,AA5503,180,,41,0.0,8,*4A
$PFLAA,0,6537,8427,0,2,AA5504,180,,41,0.0,8,*48
$PFLAA,0,6539,9856,0,2,AA5505,180,,41,0.0,8,*4C
$PFLAA,0,9581,,0,2,AA5506,,,,0.0,8,*7D
$PFLAU,6,1,2,1,0,,0,,,*4A
$GPRMC,204905.22,A,4960.00000,N,00800.15934,E,80,90,111223,,,*1F
$PGRMZ,3280,F,2*03
$GPGGA,204905.22,4960.00000,N,00800.15934,E,1,07,1.0,1000,M,,,,*15
$GPGSA,A,3,,,,,,,,,,,,,1.0,1.0,1.0*33
$PFLAA,0,6490,4098,0,2,AA5501,180,,41,0.0,8,*4D
$PFLAA,0,6491,5527,0,2,AA5502,180,,41,0.0,8,*4F
$PFLAA,0,6493,6956,0,2,AA5503,180,,41,0.0,8,*45
$PFLAA,0,6495,8386,0,2,AA5504,180,,41,0.0,8,*4D
$PFLAA,0,6498,9815,0,2,AA5505,180,,41,0.0,8,*41
$PFLAA,0,9522,,0,2,AA5506,,,,0.0,8,*74
$PFLAU,6,1,2,1,0,,0,,,*4A
$GPRMC,204906.22,A,4960.00000,N,00800.19402,E,80,90,111223,,,*18
$PGRMZ,3280,F,2*03
$GPGGA,204906.22,4960.00000,N,00800.19402,E,1,07,1.0,1000,M,,,,*12
$GPGSA,A,3,,,,,,,,,,,,,1.0,1.0,1.0*33
$PFLAA,0,6449,4057,0,2,AA5501,180,,41,0.0,8,*4A
$PFLAA,0,6450,5486,0,2,AA5502,180,,41,0.0,8,*48
$PFLAA,0,6452,6915,0,2,AA5503,180,,41,0.0,8,*4F
$PFLAA,0,6454,8345,0,2,AA5504,180,,41,0.0,8,*4F
$PFLAA,0,6456,9774,0,2,AA5505,180,,41,0.0,8,*4B
$PFLAA,0,9464,,0,2,AA5506,,,,0.0,8,*77
$PFLAU,6,1,2,1,0,,0,,,*4A
$GPRMC,204907.22,A,4960.00000,N,00800.22868,E,80,90,111223,,,*11
$PGRMZ,3280,F,2*03
$GPGGA,204907.22,4960.00000,N,00800.22868,E,1,07,1.0,1000,M,,,,*1B
$GPGSA,A,3,,,,,,,,,,,,,1.0,1.0,1.0*33
$PFLAA,0,6407,4015,0,2,AA5501,180,,41,0.0,8,*46
$PFLAA,0,6409,5445,0,2,AA5502,180,,41,0.0,8,*4B
$PFLAA,0,6410,6874,0,2,AA5503,180,,41,0.0,8,*4F
$PFLAA,0,6412,8303,0,2,AA5504,180,,41,0.0,8,*4F
$PFLAA,0,6415,9733,0,2,AA5505,180,,41,0.0,8,*4F
$PFLAA,0,9405,,0,2,AA5506,,,,0.0,8,*70
$PFLAU,6,1,2,1,0,,0,,,*4A
$GPRMC,204908.23,A,4960.00000,N,00800.26325,E,80,90,111223,,,*19
$PGRMZ,3280,F,2*03
$GPGGA,204908.23,4960.00000,N,00800.26325,E,1,07,1.0,1000,M,,,,*13
$GPGSA,A,3,,,,,,,,,,,,,1.0,1.0,1.0*33
$PFLAA,0,6366,3974,0,2,AA5501,180,,41,0.0,8,*4F
$PFLAA,0,6367,5403,0,2,AA5502,180,,41,0.0,8,*46
$PFLAA,0,6369,6833,0,2,AA5503,180,,41,0.0,8,*45
$PFLAA,0,6371,8262,0,2,AA5504,180,,41,0.0,8,*4B
$PFLAA,0,6374,9692,0,2,AA5505,180,,41,0.0,8,*45
$PFLAA,0,9347,,0,2,AA5506,,,,0.0,8,*71
$PFLAU,6,1,2,1,0,,0,,,*4A
$GPRMC,204909.23,A,4960.00000,N,00800.29785,E,80,90,111223,,,*19
$PGRMZ,3280,F,2*03
$GPGGA,204909.23,4960.00000,N,00800.29785,E,1,07,1.0,1000,M,,,,*13
$GPGSA,A,3,,,,,,,,,,,,,1.0,1.0,1.0*33
$PFLAA,0,6325,3933,0,2,AA5501,180,,41,0.0,8,*4B
$PFLAA,0,6326,5362,0,2,AA5502,180,,41,0.0,8,*43
$PFLAA,0,6328,6792,0,2,AA5503,180,,41,0.0,8,*44
$PFLAA,0,6330,8221,0,2,AA5504,180,,41,0.0,8,*49
$PFLAA,0,6332,9651,0,2,AA5505,180,,41,0.0,8,*48
$PFLAA,0,9289,,0,2,AA5506,,,,0.0,8,*72
$PFLAU,6,1,2,1,0,,0,,,*4A
$GPRMC,204910.23,A,4960.00000,N,00800.33257,E,80,90,111223,,,*10
$PGRMZ,3280,F,2*03
$GPGGA,204910.23,4960.00000,N,00800.33257,E,1,07,1.0,1000,M,,,,*1A
$GPGSA,A,3,,,,,,,,,,,,,1.0,1.0,1.0*33
$PFLAA,0,6283,3892,0,2,AA5501,180,,41,0.0,8,*4C
$PFLAA,0,6285,5321,0,2,AA5502,180,,41,0.0,8,*4C
$PFLAA,0,6286,6750,0,2,AA5503,180,,41,0.0,8,*4F
$PFLAA,0,6288,8180,0,2,AA5504,180,,41,0.0,8,*43
$PFLAA,0,6291,9609,0,2,AA5505,180,,41,0.0,8,*4D
$PFLAA,0,9230,,0,2,AA5506,,,,0.0,8,*70
$PFLAU,6,1,2,1,0,,0,,,*4A
$GPRMC,204911.23,A,4960.00000,N,00800.36728,E,80,90,111223,,,*19
$PGRMZ,3280,F,2*03
$GPGGA,204911.23,4960.00000,N,00800.36728,E,1,07,1.0,1000,M,,,,*13
$GPGSA,A,3,,,,,,,,,,,,,1.0,1.0,1.0*33
$PFLAA,0,6242,3850,0,2,AA5501,180,,41,0.0,8,*4F
$PFLAA,0,6243,5280,0,2,AA5502,180,,41,0.0,8,*4C
$PFLAA,0,6245,6709,0,2,AA5503,180,,41,0.0,8,*4C
$PFLAA,0,6247,8139,0,2,AA5504,180,,41,0.0,8,*42
$PFLAA,0,6249,9568,0,2,AA5505,180,,41,0.0,8,*4C
$PFLAA,0,9172,,0,2,AA5506,,,,0.0,8,*75
$PFLAU,6,1,2,1,0,,0,,,*4A
$GPRMC,204912.23,A,4960.00000,N,00800.40190,E,80,90,111223,,,*1E
$PGRMZ,3280,F,2*03
$GPGGA,204912.23,4960.00000,N,00800.40190,E,1,07,1.0,1000,M,,,,*14
$GPGSA,A,3,,,,,,,,,,,,,1.0,1.0,1.0*33
$PFLAA,0,6201,3809,0,2,AA5501,180,,41,0.0,8,*44
$PFLAA,0,6202,5239,0,2,AA5502,180,,41,0.0,8,*4B
$PFLAA,0,6204,6668,0,2,AA5503,180,,41,0.0,8,*4F
$PFLAA,0,6206,8097,0,2,AA5504,180,,41,0.0,8,*42
$PFLAA,0,6208,9527,0,2,AA5505,180,,41,0.0,8,*42
$PFLAA,0,9113,,0,2,AA5506,,,,0.0,8,*72
$PFLAU,6,1,2,1,0,,0,,,*4A
$GPRMC,204913.23,A,4960.00000,N,00800.43658,E,80,90,111223,,,*1F
$PGRMZ,3280,F,2*03
$GPGGA,204913.23,4960.00000,N,00800.43658,E,1,07,1.0,1000,M,,,,*15
$GPGSA,A,3,,,,,,,,,,,,,1.0,1.0,1.0*33
$PFLAA,0,6159,3768,0,2,AA5501,180,,41,0.0,8,*42
$PFLAA,0,6161,5197,0,2,AA5502,180,,41,0.0,8,*4A
$PFLAA,0,6162,6627,0,2,AA5503,180,,41,0.0,8,*47
$PFLAA,0,6164,8056,0,2,AA5504,180,,41,0.0,8,*48
$PFLAA,0,6166,9486,0,2,AA5505,180,,41,0.0,8,*43
$PFLAA,0,9055,,0,2,AA5506,,,,0.0,8,*71
$PFLAU,6,1,2,1,0,,0,,,*4A
